{
  "shops": [
    {
      "name": "Motos-Mich",
      "address": "Rue de la Fail 23",
      "city": "Niederfeulen, Luxembourg",
      "phone": "N/A",
      "website": "N/A",
      "rating": "N/A",
      "reviews_count": "0",
      "hours": "Hours not available",
      "latitude": 49.8555708,
      "longitude": 6.0466056,
      "business_type": "Motorcycle Dealership"
    },
    {
      "name": "Moto Land",
      "address": "Address not available",
      "city": "Unknown City, Luxembourg",
      "phone": "N/A",
      "website": "N/A",
      "rating": "N/A",
      "reviews_count": "0",
      "hours": "Hours not available",
      "latitude": 49.599093,
      "longitude": 6.1236338,
      "business_type": "Motorcycle Dealership"
    },
    {
      "name": "Morosini",
      "address": "Address not available",
      "city": "Unknown City, Luxembourg",
      "phone": "+32 63 38 94 93",
      "website": "http://www.garage-morosini.com",
      "rating": "N/A",
      "reviews_count": "0",
      "hours": "Hours not available",
      "latitude": 49.5581481,
      "longitude": 5.8436857,
      "business_type": "Motorcycle Dealership"
    },
    {
      "name": "Autodis",
      "address": "Address not available",
      "city": "Unknown City, Luxembourg",
      "phone": "N/A",
      "website": "N/A",
      "rating": "N/A",
      "reviews_count": "0",
      "hours": "Hours not available",
      "latitude": 49.7601338,
      "longitude": 6.1013675,
      "business_type": "Motorcycle Dealership"
    },
    {
      "name": "Motos Even",
      "address": "Rue du Moulin 23",
      "city": "Schifflange, Luxembourg",
      "phone": "N/A",
      "website": "N/A",
      "rating": "N/A",
      "reviews_count": "0",
      "hours": "Mo-Sa 08:30-12:00, 13:30-18:00",
      "latitude": 49.5080799,
      "longitude": 6.0053403,
      "business_type": "Motorcycle Dealership"
    },
    {
      "name": "KTM Luxembourg",
      "address": "Rangwee 40",
      "city": "Luxembourg, Luxembourg",
      "phone": "+352 24 87 32 57",
      "website": "https://ktmshop.lu/",
      "rating": "N/A",
      "reviews_count": "0",
      "hours": "Tu-Sa 9:00-12:00,13:00-18:00",
      "latitude": 49.5882236,
      "longitude": 6.1377503,
      "business_type": "Motorcycle Dealership"
    },
    {
      "name": "Harley-Davidson",
      "address": "Address not available",
      "city": "Unknown City, Luxembourg",
      "phone": "N/A",
      "website": "N/A",
      "rating": "N/A",
      "reviews_count": "0",
      "hours": "Hours not available",
      "latitude": 49.5889079,
      "longitude": 6.1384673,
      "business_type": "Motorcycle Dealership"
    },
    {
      "name": "Harley Davidson Luxembourg",
      "address": "Route de Remich 63",
      "city": "Moutfort, Luxembourg",
      "phone": "N/A",
      "website": "N/A",
      "rating": "N/A",
      "reviews_count": "0",
      "hours": "Hours not available",
      "latitude": 49.5893355,
      "longitude": 6.2573791,
      "business_type": "Motorcycle Dealership"
    },
    {
      "name": "Motobikers",
      "address": "Kvarngatan 1",
      "city": "Borlänge, Sweden",
      "phone": "+46-243-239966",
      "website": "https://www.motobikers.se/",
      "rating": "N/A",
      "reviews_count": "0",
      "hours": "Hours not available",
      "latitude": 60.4436993,
      "longitude": 15.489244,
      "business_type": "Motorcycle Dealership"
    },
    {
      "name": "Lundgrens Motor AB",
      "address": "Address not available",
      "city": "Unknown City, Sweden",
      "phone": "N/A",
      "website": "https://www.lundgrensmotor.se/",
      "rating": "N/A",
      "reviews_count": "0",
      "hours": "Hours not available",
      "latitude": 60.1460163,
      "longitude": 16.1759694,
      "business_type": "Motorcycle Dealership"
    },
    {
      "name": "Fottas MC",
      "address": "Address not available",
      "city": "Unknown City, Sweden",
      "phone": "N/A",
      "website": "N/A",
      "rating": "N/A",
      "reviews_count": "0",
      "hours": "Hours not available",
      "latitude": 60.1465747,
      "longitude": 15.1818695,
      "business_type": "Motorcycle Dealership"
    },
    {
      "name": "Örebro MC Service",
      "address": "Manillagatan 5",
      "city": "Örebro, Sweden",
      "phone": "+4619137540",
      "website": "N/A",
      "rating": "N/A",
      "reviews_count": "0",
      "hours": "Mo-Fr 10:00-18:00",
      "latitude": 59.2718907,
      "longitude": 15.2208621,
      "business_type": "Motorcycle Repair Shop"
    },
    {
      "name": "Cross & Enduro Companiet",
      "address": "Gamla Riksvägen 20",
      "city": "Unknown City, Sweden",
      "phone": "+46 31 7953225",
      "website": "http://www.crossendurocompaniet.se",
      "rating": "N/A",
      "reviews_count": "0",
      "hours": "Hours not available",
      "latitude": 57.615078,
      "longitude": 12.0475815,
      "business_type": "Motorcycle Dealership"
    },
    {
      "name": "Harley-Davidson",
      "address": "Address not available",
      "city": "Unknown City, Sweden",
      "phone": "N/A",
      "website": "N/A",
      "rating": "N/A",
      "reviews_count": "0",
      "hours": "Hours not available",
      "latitude": 59.4833637,
      "longitude": 18.0582009,
      "business_type": "Motorcycle Dealership"
    },
    {
      "name": "AVA MC",
      "address": "Address not available",
      "city": "Unknown City, Sweden",
      "phone": "N/A",
      "website": "N/A",
      "rating": "N/A",
      "reviews_count": "0",
      "hours": "Hours not available",
      "latitude": 59.2534123,
      "longitude": 17.8763004,
      "business_type": "Motorcycle Dealership"
    },
    {
      "name": "Motostar",
      "address": "Address not available",
      "city": "Unknown City, Sweden",
      "phone": "+46 416 17575",
      "website": "http://www.motostarmx.se",
      "rating": "N/A",
      "reviews_count": "0",
      "hours": "Hours not available",
      "latitude": 55.6376101,
      "longitude": 13.6888975,
      "business_type": "Motorcycle Dealership"
    },
    {
      "name": "Sulas custom",
      "address": "Address not available",
      "city": "Unknown City, Sweden",
      "phone": "N/A",
      "website": "N/A",
      "rating": "N/A",
      "reviews_count": "0",
      "hours": "Hours not available",
      "latitude": 59.7684985,
      "longitude": 17.3930638,
      "business_type": "Motorcycle Dealership"
    },
    {
      "name": "MotoSpeed AB",
      "address": "Traversgatan 13",
      "city": "Västerås, Sweden",
      "phone": "N/A",
      "website": "https://motospeed.se/",
      "rating": "N/A",
      "reviews_count": "0",
      "hours": "Hours not available",
      "latitude": 59.6134337,
      "longitude": 16.4645035,
      "business_type": "Motorcycle Dealership"
    },
    {
      "name": "Powersport Center",
      "address": "Axvägen 12",
      "city": "Sundsvall, Sweden",
      "phone": "+466020211",
      "website": "https://www.powersport.se/",
      "rating": "N/A",
      "reviews_count": "0",
      "hours": "Hours not available",
      "latitude": 62.3933721,
      "longitude": 17.259972,
      "business_type": "Motorcycle Dealership"
    },
    {
      "name": "Din MC",
      "address": "Address not available",
      "city": "Unknown City, Sweden",
      "phone": "N/A",
      "website": "https://dinmc.se",
      "rating": "N/A",
      "reviews_count": "0",
      "hours": "Hours not available",
      "latitude": 59.4834217,
      "longitude": 17.9221934,
      "business_type": "Motorcycle Dealership"
    },
    {
      "name": "Touringbutiken",
      "address": "Address not available",
      "city": "Unknown City, Sweden",
      "phone": "N/A",
      "website": "https://www.touring.se/",
      "rating": "N/A",
      "reviews_count": "0",
      "hours": "Hours not available",
      "latitude": 60.5484575,
      "longitude": 15.2723638,
      "business_type": "Motorcycle Dealership"
    },
    {
      "name": "MC Doktorn",
      "address": "Address not available",
      "city": "Unknown City, Sweden",
      "phone": "+46 457 81180;+46 70 2360027;",
      "website": "https://mcdoktorn.se/",
      "rating": "N/A",
      "reviews_count": "0",
      "hours": "Hours not available",
      "latitude": 56.2131622,
      "longitude": 15.2765901,
      "business_type": "Motorcycle Dealership"
    },
    {
      "name": "SpeedRaceShop",
      "address": "Address not available",
      "city": "Unknown City, Sweden",
      "phone": "+46 455 361025",
      "website": "https://speedraceshop.se/",
      "rating": "N/A",
      "reviews_count": "0",
      "hours": "Hours not available",
      "latitude": 56.3139769,
      "longitude": 15.71145,
      "business_type": "Motorcycle Dealership"
    },
    {
      "name": "Nygrens Motor",
      "address": "Address not available",
      "city": "Unknown City, Sweden",
      "phone": "+46 457 66265",
      "website": "www.nygrensmotor.se",
      "rating": "N/A",
      "reviews_count": "0",
      "hours": "Hours not available",
      "latitude": 56.2158557,
      "longitude": 15.2688542,
      "business_type": "Motorcycle Dealership"
    },
    {
      "name": "Sportdepån",
      "address": "Importgatan 5",
      "city": "Hisings Backa, Sweden",
      "phone": "N/A",
      "website": "N/A",
      "rating": "N/A",
      "reviews_count": "0",
      "hours": "Hours not available",
      "latitude": 57.7470026,
      "longitude": 11.9939629,
      "business_type": "Motorcycle Dealership"
    },
    {
      "name": "MotorCenter i Helsingland AB",
      "address": "Address not available",
      "city": "Unknown City, Sweden",
      "phone": "N/A",
      "website": "N/A",
      "rating": "N/A",
      "reviews_count": "0",
      "hours": "Hours not available",
      "latitude": 61.353756,
      "longitude": 16.4428668,
      "business_type": "Motorcycle Dealership"
    },
    {
      "name": "Probike Helsingborg",
      "address": "Address not available",
      "city": "Unknown City, Sweden",
      "phone": "N/A",
      "website": "http://probike-helsingborg.probike.se/",
      "rating": "N/A",
      "reviews_count": "0",
      "hours": "Hours not available",
      "latitude": 56.0704129,
      "longitude": 12.7230845,
      "business_type": "Motorcycle Dealership"
    },
    {
      "name": "ProBike Malmö",
      "address": "Address not available",
      "city": "Unknown City, Sweden",
      "phone": "N/A",
      "website": "http://probike-malmo.probike.se/",
      "rating": "N/A",
      "reviews_count": "0",
      "hours": "Hours not available",
      "latitude": 55.6239785,
      "longitude": 13.0609567,
      "business_type": "Motorcycle Dealership"
    },
    {
      "name": "Mickes Motor",
      "address": "Hjalmar Petris väg 57-59",
      "city": "Växjö, Sweden",
      "phone": "+46 470 700880",
      "website": "https://mickesmotor.se/",
      "rating": "N/A",
      "reviews_count": "0",
      "hours": "Hours not available",
      "latitude": 56.8882511,
      "longitude": 14.7606689,
      "business_type": "Motorcycle Dealership"
    },
    {
      "name": "MC-Center AB",
      "address": "Address not available",
      "city": "Unknown City, Sweden",
      "phone": "+46 44 217990",
      "website": "http://www.mccenter.se/",
      "rating": "N/A",
      "reviews_count": "0",
      "hours": "Hours not available",
      "latitude": 56.0225718,
      "longitude": 14.1413948,
      "business_type": "Motorcycle Dealership"
    },
    {
      "name": "Mohlins Cykel & Motor AB",
      "address": "Address not available",
      "city": "Unknown City, Sweden",
      "phone": "+46 451 89710",
      "website": "https://www.mohlins.se/",
      "rating": "N/A",
      "reviews_count": "0",
      "hours": "Hours not available",
      "latitude": 56.0201373,
      "longitude": 14.1236851,
      "business_type": "Motorcycle Dealership"
    },
    {
      "name": "MMGMC",
      "address": "Address not available",
      "city": "Unknown City, Sweden",
      "phone": "+46 454 585250",
      "website": "https://www.mmgmc.se/",
      "rating": "N/A",
      "reviews_count": "0",
      "hours": "Mo-Fr 09:00-18:00; Sa 10:00-14:00",
      "latitude": 56.1863639,
      "longitude": 14.8482629,
      "business_type": "Motorcycle Dealership"
    },
    {
      "name": "Inlandets Maskin & Fritid AB",
      "address": "Bergstigen 5",
      "city": "Lycksele, Sweden",
      "phone": "+46 950-38240",
      "website": "https://www.inlandets.se/",
      "rating": "N/A",
      "reviews_count": "0",
      "hours": "10:00-17:30",
      "latitude": 64.5895749,
      "longitude": 18.696271,
      "business_type": "Motorcycle Dealership"
    },
    {
      "name": "Yamaha Center Stockholm",
      "address": "Address not available",
      "city": "Unknown City, Sweden",
      "phone": "N/A",
      "website": "https://yamahacenter.com/stockholm/start",
      "rating": "N/A",
      "reviews_count": "0",
      "hours": "Hours not available",
      "latitude": 59.1498444,
      "longitude": 18.1580937,
      "business_type": "Motorcycle Dealership"
    },
    {
      "name": "Lelles MC Delar",
      "address": "Address not available",
      "city": "Unknown City, Sweden",
      "phone": "N/A",
      "website": "https://www.lellesmcdelar.se",
      "rating": "N/A",
      "reviews_count": "0",
      "hours": "Hours not available",
      "latitude": 59.8558694,
      "longitude": 17.6769563,
      "business_type": "Motorcycle Dealership"
    },
    {
      "name": "Doghill Racing",
      "address": "Address not available",
      "city": "Hedemora, Sweden",
      "phone": "N/A",
      "website": "https://www.dalahundhotell.se/",
      "rating": "N/A",
      "reviews_count": "0",
      "hours": "Hours not available",
      "latitude": 60.3098786,
      "longitude": 15.9699308,
      "business_type": "Motorcycle Dealership"
    },
    {
      "name": "Ludvika MC",
      "address": "Address not available",
      "city": "Unknown City, Sweden",
      "phone": "N/A",
      "website": "N/A",
      "rating": "N/A",
      "reviews_count": "0",
      "hours": "Hours not available",
      "latitude": 60.1544227,
      "longitude": 15.1927341,
      "business_type": "Motorcycle Dealership"
    },
    {
      "name": "Kenneths MC-service",
      "address": "Address not available",
      "city": "Unknown City, Sweden",
      "phone": "N/A",
      "website": "N/A",
      "rating": "N/A",
      "reviews_count": "0",
      "hours": "Mo-Fr 07:30-11:30,12:30-16:30; PH off",
      "latitude": 57.7768414,
      "longitude": 11.9946097,
      "business_type": "Motorcycle Repair Shop"
    },
    {
      "name": "Northbike",
      "address": "Address not available",
      "city": "Unknown City, Sweden",
      "phone": "N/A",
      "website": "N/A",
      "rating": "N/A",
      "reviews_count": "0",
      "hours": "Hours not available",
      "latitude": 62.3813703,
      "longitude": 17.3582353,
      "business_type": "Motorcycle Dealership"
    },
    {
      "name": "AVA MC",
      "address": "Mörtnäs Hagväg 13",
      "city": "Värmdö, Sweden",
      "phone": "N/A",
      "website": "https://www.avamc.se/",
      "rating": "N/A",
      "reviews_count": "0",
      "hours": "Hours not available",
      "latitude": 59.3154693,
      "longitude": 18.4312266,
      "business_type": "Motorcycle Dealership"
    },
    {
      "name": "MC Proffsen",
      "address": "Address not available",
      "city": "Unknown City, Sweden",
      "phone": "+46 36 70570",
      "website": "https://www.mc-proffsen.se/",
      "rating": "N/A",
      "reviews_count": "0",
      "hours": "Hours not available",
      "latitude": 57.733939,
      "longitude": 14.1222881,
      "business_type": "Motorcycle Dealership"
    },
    {
      "name": "MC Proffsen Service",
      "address": "Address not available",
      "city": "Unknown City, Sweden",
      "phone": "+46 036-70580",
      "website": "https://mc-proffsen.se/verkstaden/",
      "rating": "N/A",
      "reviews_count": "0",
      "hours": "Hours not available",
      "latitude": 57.7338667,
      "longitude": 14.122213,
      "business_type": "Motorcycle Repair Shop"
    },
    {
      "name": "Puchverkstan.se",
      "address": "Address not available",
      "city": "Unknown City, Sweden",
      "phone": "N/A",
      "website": "N/A",
      "rating": "N/A",
      "reviews_count": "0",
      "hours": "Hours not available",
      "latitude": 56.0561642,
      "longitude": 12.961726,
      "business_type": "Motorcycle Repair Shop"
    },
    {
      "name": "Rgnt Motorcycles",
      "address": "Address not available",
      "city": "Unknown City, Sweden",
      "phone": "N/A",
      "website": "N/A",
      "rating": "N/A",
      "reviews_count": "0",
      "hours": "Hours not available",
      "latitude": 59.3359633,
      "longitude": 18.0519572,
      "business_type": "Motorcycle Dealership"
    },
    {
      "name": "Dala MC Verkstad",
      "address": "Address not available",
      "city": "Unknown City, Sweden",
      "phone": "N/A",
      "website": "https://www.dalamcverkstad.se",
      "rating": "N/A",
      "reviews_count": "0",
      "hours": "Hours not available",
      "latitude": 60.46042,
      "longitude": 15.4326549,
      "business_type": "Motorcycle Repair Shop"
    },
    {
      "name": "Eliasson Racing AB",
      "address": "Address not available",
      "city": "Unknown City, Sweden",
      "phone": "N/A",
      "website": "https://www.eliassonracing.se/",
      "rating": "N/A",
      "reviews_count": "0",
      "hours": "Hours not available",
      "latitude": 56.7384242,
      "longitude": 15.8880388,
      "business_type": "Motorcycle Dealership"
    },
    {
      "name": "RG Engineering",
      "address": "Address not available",
      "city": "Unknown City, Sweden",
      "phone": "N/A",
      "website": "N/A",
      "rating": "N/A",
      "reviews_count": "0",
      "hours": "Hours not available",
      "latitude": 56.9060308,
      "longitude": 12.4554953,
      "business_type": "Motorcycle Repair Shop"
    },
    {
      "name": "Järvsö motor",
      "address": "Industrivägen 22",
      "city": "Järvsö, Sweden",
      "phone": "+46 651 41243",
      "website": "https://www.jarvsomotor.se/",
      "rating": "N/A",
      "reviews_count": "0",
      "hours": "Hours not available",
      "latitude": 61.7174768,
      "longitude": 16.1744068,
      "business_type": "Motorcycle Dealership"
    },
    {
      "name": "WheelKing",
      "address": "Verkstadsvägen 79",
      "city": "Motala, Sweden",
      "phone": "+46 761-070004",
      "website": "https://wheelking.se/",
      "rating": "N/A",
      "reviews_count": "0",
      "hours": "Mo-Sa 08:00-18:00",
      "latitude": 58.5444774,
      "longitude": 15.0637739,
      "business_type": "Motorcycle Dealership"
    },
    {
      "name": "BigBallsMX",
      "address": "Address not available",
      "city": "Unknown City, Sweden",
      "phone": "N/A",
      "website": "https://www.bigballsmx.com/",
      "rating": "N/A",
      "reviews_count": "0",
      "hours": "Hours not available",
      "latitude": 56.8797649,
      "longitude": 14.8287253,
      "business_type": "Motorcycle Dealership"
    },
    {
      "name": "Bike Heaven",
      "address": "Address not available",
      "city": "Unknown City, Sweden",
      "phone": "N/A",
      "website": "https://www.bikeheaven.com/",
      "rating": "N/A",
      "reviews_count": "0",
      "hours": "Hours not available",
      "latitude": 56.8884004,
      "longitude": 14.7763654,
      "business_type": "Motorcycle Dealership"
    },
    {
      "name": "Knobby",
      "address": "Address not available",
      "city": "Unknown City, Sweden",
      "phone": "N/A",
      "website": "N/A",
      "rating": "N/A",
      "reviews_count": "0",
      "hours": "Hours not available",
      "latitude": 56.2450285,
      "longitude": 12.8938948,
      "business_type": "Motorcycle Repair Shop"
    },
    {
      "name": "Northbike",
      "address": "Strömvägen 2",
      "city": "Umeå, Sweden",
      "phone": "N/A",
      "website": "N/A",
      "rating": "N/A",
      "reviews_count": "0",
      "hours": "Mo-Fr 08:00-18:00, Sa 11:00-15:00",
      "latitude": 63.8460332,
      "longitude": 20.2265685,
      "business_type": "Motorcycle Dealership"
    },
    {
      "name": "GBG Customs",
      "address": "Address not available",
      "city": "Unknown City, Sweden",
      "phone": "N/A",
      "website": "N/A",
      "rating": "N/A",
      "reviews_count": "0",
      "hours": "Hours not available",
      "latitude": 57.6582144,
      "longitude": 11.9432,
      "business_type": "Motorcycle Dealership"
    },
    {
      "name": "Mc-Center Karlstad",
      "address": "Bivägen 8",
      "city": "Hammarö, Sweden",
      "phone": "N/A",
      "website": "N/A",
      "rating": "N/A",
      "reviews_count": "0",
      "hours": "Hours not available",
      "latitude": 59.3452513,
      "longitude": 13.5027557,
      "business_type": "Motorcycle Dealership"
    },
    {
      "name": "Mohlin's",
      "address": "Address not available",
      "city": "Unknown City, Sweden",
      "phone": "N/A",
      "website": "N/A",
      "rating": "N/A",
      "reviews_count": "0",
      "hours": "Mo-Fr 10:00-13:00,14:00-18:00",
      "latitude": 56.1592132,
      "longitude": 13.767111,
      "business_type": "Motorcycle Dealership"
    },
    {
      "name": "MC-Konsult & Motorteknik i Lidköping AB",
      "address": "Kinnegatan 15",
      "city": "Lidköping, Sweden",
      "phone": "+46 510 240 35",
      "website": "N/A",
      "rating": "N/A",
      "reviews_count": "0",
      "hours": "Mo-Fr 10:00-12:30,13:30-17:00; Sa 10:00-13:00; PH off",
      "latitude": 58.5032519,
      "longitude": 13.1680889,
      "business_type": "Motorcycle Dealership"
    },
    {
      "name": "Lillemans MC",
      "address": "Address not available",
      "city": "Unknown City, Sweden",
      "phone": "N/A",
      "website": "N/A",
      "rating": "N/A",
      "reviews_count": "0",
      "hours": "Hours not available",
      "latitude": 55.683668,
      "longitude": 13.2090866,
      "business_type": "Motorcycle Dealership"
    },
    {
      "name": "RPM dirtbike pros",
      "address": "Address not available",
      "city": "Unknown City, Sweden",
      "phone": "N/A",
      "website": "N/A",
      "rating": "N/A",
      "reviews_count": "0",
      "hours": "Mo-Fr 10:00-17:00, Tu 10:00-18:00",
      "latitude": 59.8781208,
      "longitude": 12.2963616,
      "business_type": "Motorcycle Repair Shop"
    },
    {
      "name": "Harley-Davidson Linköping",
      "address": "Bonnorpsgatan 4",
      "city": "Linköping, Sweden",
      "phone": "+46 13-20 48 48",
      "website": "https://hdlinkoping.se/",
      "rating": "N/A",
      "reviews_count": "0",
      "hours": "Mo-Fr 08:00-18:00; Sa 10:00-15:0",
      "latitude": 58.4314129,
      "longitude": 15.6004216,
      "business_type": "Motorcycle Dealership"
    },
    {
      "name": "ecooter",
      "address": "Albanovägen 15",
      "city": "Unknown City, Sweden",
      "phone": "N/A",
      "website": "https://ecooter.se/",
      "rating": "N/A",
      "reviews_count": "0",
      "hours": "Hours not available",
      "latitude": 59.3547959,
      "longitude": 18.057819,
      "business_type": "Motorcycle Dealership"
    },
    {
      "name": "Floda Cykel och Mopedverkstad",
      "address": "Address not available",
      "city": "Unknown City, Sweden",
      "phone": "N/A",
      "website": "https://floda-cmv.se/",
      "rating": "N/A",
      "reviews_count": "0",
      "hours": "Hours not available",
      "latitude": 57.809432,
      "longitude": 12.3614692,
      "business_type": "Motorcycle Repair Shop"
    },
    {
      "name": "Johans MC",
      "address": "Tagenevägen 28",
      "city": "Unknown City, Sweden",
      "phone": "N/A",
      "website": "N/A",
      "rating": "N/A",
      "reviews_count": "0",
      "hours": "Mo-Th 10:00-18:00; Fr 10:00-17:00; Sa 10:00-15:00",
      "latitude": 57.7732296,
      "longitude": 11.9926175,
      "business_type": "Motorcycle Dealership"
    },
    {
      "name": "ProBike Göteborg",
      "address": "Address not available",
      "city": "Unknown City, Sweden",
      "phone": "N/A",
      "website": "http://probike-malmo.probike.se/",
      "rating": "N/A",
      "reviews_count": "0",
      "hours": "Hours not available",
      "latitude": 57.6428124,
      "longitude": 11.9946024,
      "business_type": "Motorcycle Dealership"
    },
    {
      "name": "Kings&Queens",
      "address": "Address not available",
      "city": "Unknown City, Sweden",
      "phone": "N/A",
      "website": "https://www.kingsandqueens.nu/",
      "rating": "N/A",
      "reviews_count": "0",
      "hours": "Hours not available",
      "latitude": 57.7668672,
      "longitude": 14.1819156,
      "business_type": "Motorcycle Dealership"
    },
    {
      "name": "Beviks",
      "address": "Låskolvsgatan 1",
      "city": "Linköping, Sweden",
      "phone": "+46 13-36 25 00",
      "website": "https://www.beviks.se/",
      "rating": "N/A",
      "reviews_count": "0",
      "hours": "Hours not available",
      "latitude": 58.3994735,
      "longitude": 15.6889802,
      "business_type": "Motorcycle Dealership"
    },
    {
      "name": "Lingvalls motor",
      "address": "Kryddstigen 19",
      "city": "Gävle, Sweden",
      "phone": "N/A",
      "website": "https://www.lingvalls.se",
      "rating": "N/A",
      "reviews_count": "0",
      "hours": "Hours not available",
      "latitude": 60.6577116,
      "longitude": 17.1732652,
      "business_type": "Motorcycle Dealership"
    },
    {
      "name": "Lingvalls motor",
      "address": "Kryddstigen 12",
      "city": "Gävle, Sweden",
      "phone": "N/A",
      "website": "https://www.lingvalls.se",
      "rating": "N/A",
      "reviews_count": "0",
      "hours": "Mo-Fr 10:00-18:00; Sa 10:00-14:00",
      "latitude": 60.6574149,
      "longitude": 17.1707719,
      "business_type": "Motorcycle Dealership"
    },
    {
      "name": "Duells",
      "address": "Exportgatan 65",
      "city": "Hisings Backa, Sweden",
      "phone": "N/A",
      "website": "N/A",
      "rating": "N/A",
      "reviews_count": "0",
      "hours": "Hours not available",
      "latitude": 57.7418246,
      "longitude": 11.9985865,
      "business_type": "Motorcycle Dealership"
    },
    {
      "name": "Yamaha Center",
      "address": "Address not available",
      "city": "Unknown City, Sweden",
      "phone": "N/A",
      "website": "N/A",
      "rating": "N/A",
      "reviews_count": "0",
      "hours": "Hours not available",
      "latitude": 63.2799067,
      "longitude": 18.7379135,
      "business_type": "Motorcycle Dealership"
    },
    {
      "name": "Bike i Trollhättan",
      "address": "Lextorpsvägen 997",
      "city": "Unknown City, Sweden",
      "phone": "N/A",
      "website": "https://www.biketrollhattan.se/",
      "rating": "N/A",
      "reviews_count": "0",
      "hours": "Hours not available",
      "latitude": 58.2609712,
      "longitude": 12.2897794,
      "business_type": "Motorcycle Dealership"
    },
    {
      "name": "Claessons Motor",
      "address": "Industrigatan 11 Box 136",
      "city": "Bromölla, Sweden",
      "phone": "+46 456 23030",
      "website": "http://www.claessonsmotor.se/",
      "rating": "N/A",
      "reviews_count": "0",
      "hours": "Hours not available",
      "latitude": 56.0661151,
      "longitude": 14.4812848,
      "business_type": "Motorcycle Dealership"
    },
    {
      "name": "MC Guiden",
      "address": "Stålvägen 11",
      "city": "Vetlanda, Sweden",
      "phone": "N/A",
      "website": "https://www.mcguiden.se/",
      "rating": "N/A",
      "reviews_count": "0",
      "hours": "Hours not available",
      "latitude": 57.4129931,
      "longitude": 15.0777315,
      "business_type": "Motorcycle Dealership"
    },
    {
      "name": "Scooterspecialisten",
      "address": "Address not available",
      "city": "Unknown City, Sweden",
      "phone": "N/A",
      "website": "http://scooterspecialisten.se/",
      "rating": "N/A",
      "reviews_count": "0",
      "hours": "Hours not available",
      "latitude": 57.8791329,
      "longitude": 11.9794327,
      "business_type": "Motorcycle Dealership"
    },
    {
      "name": "Karlström motor",
      "address": "Fridhemsgatan 1",
      "city": "Sala, Sweden",
      "phone": "N/A",
      "website": "N/A",
      "rating": "N/A",
      "reviews_count": "0",
      "hours": "Hours not available",
      "latitude": 59.916491,
      "longitude": 16.626893,
      "business_type": "Motorcycle Dealership"
    },
    {
      "name": "Yamaha Center",
      "address": "Kongegårdsgatan 1",
      "city": "Mölndal, Sweden",
      "phone": "N/A",
      "website": "N/A",
      "rating": "N/A",
      "reviews_count": "0",
      "hours": "Hours not available",
      "latitude": 57.6418395,
      "longitude": 11.9833513,
      "business_type": "Motorcycle Dealership"
    },
    {
      "name": "Carlbarks",
      "address": "Norra Mosvägen 1",
      "city": "Kumla, Sweden",
      "phone": "+46 19 570701",
      "website": "https://www.carlbarks.se/",
      "rating": "N/A",
      "reviews_count": "0",
      "hours": "Mo-Fr 10:00-18:00; Sa 10:00-14:00",
      "latitude": 59.1507839,
      "longitude": 15.1399639,
      "business_type": "Motorcycle Dealership"
    },
    {
      "name": "Eurowheels",
      "address": "Bergsvägen 44",
      "city": "Fellingsbro, Sweden",
      "phone": "N/A",
      "website": "N/A",
      "rating": "N/A",
      "reviews_count": "0",
      "hours": "Hours not available",
      "latitude": 59.4386369,
      "longitude": 15.5928426,
      "business_type": "Motorcycle Repair Shop"
    },
    {
      "name": "Bike i Göteborg",
      "address": "Orrekulla Industrigata 35",
      "city": "Hisings Kärra, Sweden",
      "phone": "N/A",
      "website": "N/A",
      "rating": "N/A",
      "reviews_count": "0",
      "hours": "Hours not available",
      "latitude": 57.7935667,
      "longitude": 12.0074018,
      "business_type": "Motorcycle Dealership"
    },
    {
      "name": "Motorcenter i Ekshärad AB",
      "address": "Basterud Biskopsdalen",
      "city": "Ekshärad, Sweden",
      "phone": "+46 (0)563 40204",
      "website": "N/A",
      "rating": "N/A",
      "reviews_count": "0",
      "hours": "Mo-Fr 09:00-12:00,13:00-17:00",
      "latitude": 60.1287156,
      "longitude": 13.4880429,
      "business_type": "Motorcycle Dealership"
    },
    {
      "name": "Tving MC Service",
      "address": "Address not available",
      "city": "Unknown City, Sweden",
      "phone": "+46 455 330130",
      "website": "http://www.tvingmcservice.se/",
      "rating": "N/A",
      "reviews_count": "0",
      "hours": "Hours not available",
      "latitude": 56.3122169,
      "longitude": 15.4579842,
      "business_type": "Motorcycle Dealership"
    },
    {
      "name": "Nilssons Motor",
      "address": "Address not available",
      "city": "Unknown City, Sweden",
      "phone": "+46 433 30070",
      "website": "https://nilssonsmotor.com/",
      "rating": "N/A",
      "reviews_count": "0",
      "hours": "Hours not available",
      "latitude": 56.3655216,
      "longitude": 13.4680411,
      "business_type": "Motorcycle Dealership"
    },
    {
      "name": "Stuvsta Mopedservice",
      "address": "Sjövägen 56",
      "city": "Huddinge, Sweden",
      "phone": "+46 8 711 80 85",
      "website": "http://www.stuvstamopedservice.com",
      "rating": "N/A",
      "reviews_count": "0",
      "hours": "Hours not available",
      "latitude": 59.2374993,
      "longitude": 18.0112995,
      "business_type": "Motorcycle Repair Shop"
    },
    {
      "name": "Extremebike",
      "address": "Address not available",
      "city": "Unknown City, Sweden",
      "phone": "N/A",
      "website": "https://www.extremebike.se/",
      "rating": "N/A",
      "reviews_count": "0",
      "hours": "Hours not available",
      "latitude": 56.5329607,
      "longitude": 14.9576881,
      "business_type": "Motorcycle Dealership"
    },
    {
      "name": "Tibro MC-Service",
      "address": "Norra Rydsgatan 7",
      "city": "Tibro, Sweden",
      "phone": "+46 504 120 12",
      "website": "http://www.tibromcservice.se/",
      "rating": "N/A",
      "reviews_count": "0",
      "hours": "Mo-Fr 09:30-12:30,13:30-18:00",
      "latitude": 58.420772,
      "longitude": 14.1312143,
      "business_type": "Motorcycle Dealership"
    },
    {
      "name": "Jonsons Bikes",
      "address": "Address not available",
      "city": "Unknown City, Sweden",
      "phone": "N/A",
      "website": "https://www.jonsonsbikes.com/",
      "rating": "N/A",
      "reviews_count": "0",
      "hours": "Mo-Fr 10:00-18:00;Sa 10:00-13:00",
      "latitude": 56.1956223,
      "longitude": 15.8496868,
      "business_type": "Motorcycle Dealership"
    },
    {
      "name": "Gerts Cykel och Motor",
      "address": "Skansgatan 2",
      "city": "Ängelholm, Sweden",
      "phone": "N/A",
      "website": "https://www.gertsmotor.se/",
      "rating": "N/A",
      "reviews_count": "0",
      "hours": "Mo-Fr 09:00-18:00",
      "latitude": 56.2370231,
      "longitude": 12.8589332,
      "business_type": "Motorcycle Dealership"
    },
    {
      "name": "Motor Center",
      "address": "Address not available",
      "city": "Unknown City, Sweden",
      "phone": "N/A",
      "website": "N/A",
      "rating": "N/A",
      "reviews_count": "0",
      "hours": "Hours not available",
      "latitude": 60.6678208,
      "longitude": 17.0639832,
      "business_type": "Motorcycle Dealership"
    },
    {
      "name": "Speedstore",
      "address": "Address not available",
      "city": "Unknown City, Sweden",
      "phone": "N/A",
      "website": "N/A",
      "rating": "N/A",
      "reviews_count": "0",
      "hours": "Hours not available",
      "latitude": 60.6181036,
      "longitude": 16.9784108,
      "business_type": "Motorcycle Dealership"
    },
    {
      "name": "Promoteq Motor",
      "address": "Address not available",
      "city": "Unknown City, Sweden",
      "phone": "N/A",
      "website": "N/A",
      "rating": "N/A",
      "reviews_count": "0",
      "hours": "Hours not available",
      "latitude": 60.6427253,
      "longitude": 16.7919054,
      "business_type": "Motorcycle Dealership"
    },
    {
      "name": "Motostar",
      "address": "Address not available",
      "city": "Unknown City, Sweden",
      "phone": "N/A",
      "website": "N/A",
      "rating": "N/A",
      "reviews_count": "0",
      "hours": "Hours not available",
      "latitude": 55.6370213,
      "longitude": 13.6796222,
      "business_type": "Motorcycle Dealership"
    },
    {
      "name": "Motorrad Center Stockholm",
      "address": "Slånbärsvägen 6",
      "city": "Upplands Väsby, Sweden",
      "phone": "N/A",
      "website": "https://motorradcenterstockholm.se/sv/contact",
      "rating": "N/A",
      "reviews_count": "0",
      "hours": "Hours not available",
      "latitude": 59.498806,
      "longitude": 17.9356543,
      "business_type": "Motorcycle Repair Shop"
    },
    {
      "name": "Polaris",
      "address": "Address not available",
      "city": "Unknown City, Sweden",
      "phone": "N/A",
      "website": "N/A",
      "rating": "N/A",
      "reviews_count": "0",
      "hours": "Hours not available",
      "latitude": 61.3564883,
      "longitude": 16.3969872,
      "business_type": "Motorcycle Dealership"
    },
    {
      "name": "Nordqvist Racing",
      "address": "Järbovägen 993",
      "city": "Järbo, Sweden",
      "phone": "N/A",
      "website": "N/A",
      "rating": "N/A",
      "reviews_count": "0",
      "hours": "Hours not available",
      "latitude": 60.7098611,
      "longitude": 16.6013004,
      "business_type": "Motorcycle Dealership"
    },
    {
      "name": "Elit MC Göteborg",
      "address": "Brålandsvägen 21",
      "city": "Unknown City, Sweden",
      "phone": "N/A",
      "website": "N/A",
      "rating": "N/A",
      "reviews_count": "0",
      "hours": "Hours not available",
      "latitude": 58.015977,
      "longitude": 11.8391234,
      "business_type": "Motorcycle Dealership"
    }
  ],
  "countries": {
    "Luxembourg": [
      "Luxembourg",
      "Moutfort",
      "Niederfeulen",
      "Schifflange",
      "Unknown City"
    ],
    "Sweden": [
      "Borlänge",
      "Bromölla",
      "Ekshärad",
      "Fellingsbro",
      "Gävle",
      "Hammarö",
      "Hedemora",
      "Hisings Backa",
      "Hisings Kärra",
      "Huddinge",
      "Järbo",
      "Järvsö",
      "Kumla",
      "Lidköping",
      "Linköping",
      "Lycksele",
      "Motala",
      "Mölndal",
      "Sala",
      "Sundsvall",
      "Tibro",
      "Umeå",
      "Unknown City",
      "Upplands Väsby",
      "Vetlanda",
      "Värmdö",
      "Västerås",
      "Växjö",
      "Ängelholm",
      "Örebro"
    ]
  }
}